[
    {
        "name": "Hanoi",
        "latitude": 21.0277644,
        "longitude": 105.8341598
    },
    {
        "name": "A25 Hotel - 223 Bạch Mai",
        "latitude": 21.0042393,
        "longitude": 105.8512112
    },
    {
        "name": "Khách Sạn Satel",
        "latitude": 21.0042339,
        "longitude": 105.8509916
    },
    {
        "name": "Trứng sạch",
        "latitude": 21.0062675,
        "longitude": 105.8508297
    },
    {
        "name": "private",
        "latitude": 21.0064898,
        "longitude": 105.8507039
    },
    {
        "name": "Nha Khoa Đông Đô",
        "latitude": 21.0050132,
        "longitude": 105.8512036
    },
    {
        "name": "ZaZa Shop",
        "latitude": 21.0063934,
        "longitude": 105.8513339
    },
    {
        "name": "Cơm Văn Phòng Phú Thịnh",
        "latitude": 21.005424,
        "longitude": 105.8510494
    },
    {
        "name": "Công ty TNHH BKTĐH",
        "latitude": 21.00525649999999,
        "longitude": 105.8510583
    },
    {
        "name": "Captot.vn - Pair students and anti-hunchbacked ultralight",
        "latitude": 21.00579459999999,
        "longitude": 105.8511115
    },
    {
        "name": "MSC Smart Phone Repair",
        "latitude": 21.005885,
        "longitude": 105.8510716
    },
    {
        "name": "Ngân Hàng Tm Cp Xuất Nhập Khẩu Việt Nam (Eximbank) - Pgd Bạch Mai",
        "latitude": 21.0058836,
        "longitude": 105.8511092
    },
    {
        "name": "Trung tâm luyện thi TOEIC",
        "latitude": 21.00587939999999,
        "longitude": 105.8513257
    },
    {
        "name": "MoneyGram",
        "latitude": 21.0059611,
        "longitude": 105.8513284
    },
    {
        "name": "ATM Southernbank - OCB Hai Ba Trung",
        "latitude": 21.005048,
        "longitude": 105.8506904
    },
    {
        "name": "LeNoir. Luxury",
        "latitude": 21.0062681,
        "longitude": 105.8511557
    },
    {
        "name": "Cửa Hàng Túi Xách F1",
        "latitude": 21.0047835,
        "longitude": 105.8508859
    },
    {
        "name": "Billie Studio",
        "latitude": 21.0063364,
        "longitude": 105.8511966
    },
    {
        "name": "Cửa hàng Thời trang Phan Nguyễn",
        "latitude": 21.0047015,
        "longitude": 105.8512235
    },
    {
        "name": "Thanh Nhàn",
        "latitude": 21.0053964,
        "longitude": 105.8569193
    }
]